{
"type": "FeatureCollection",
"crs": { "type": "name", "properties": { "name": "urn:ogc:def:crs:OGC:1.3:CRS84" } },
"features": [
{ "type": "Feature", "properties": { "Name": "Buffalo Bills", "Description": "<br>Source: Wikipedia article <a href=\"https:\/\/en.wikipedia.org\/wiki\/National_Football_League#cite_ref-History_of_NFL_franchises.2C_1920.E2.80.93present_56-0\">National Football League<\/a>" }, "geometry": { "type": "Point", "coordinates": [ -78.787, 42.774, 0.0 ] } },
{ "type": "Feature", "properties": { "Name": "Miami Dolphins", "Description": "<br>Source: Wikipedia article <a href=\"https:\/\/en.wikipedia.org\/wiki\/National_Football_League#cite_ref-History_of_NFL_franchises.2C_1920.E2.80.93present_56-0\">National Football League<\/a>" }, "geometry": { "type": "Point", "coordinates": [ -80.239, 25.958, 0.0 ] } },
{ "type": "Feature", "properties": { "Name": "New England Patriots", "Description": "<br>Source: Wikipedia article <a href=\"https:\/\/en.wikipedia.org\/wiki\/National_Football_League#cite_ref-History_of_NFL_franchises.2C_1920.E2.80.93present_56-0\">National Football League<\/a>" }, "geometry": { "type": "Point", "coordinates": [ -71.264, 42.091, 0.0 ] } },
{ "type": "Feature", "properties": { "Name": "New York Jets", "Description": "<br>Source: Wikipedia article <a href=\"https:\/\/en.wikipedia.org\/wiki\/National_Football_League#cite_ref-b_58-0\">National Football League<\/a>" }, "geometry": { "type": "Point", "coordinates": [ -74.074, 40.814, 0.0 ] } },
{ "type": "Feature", "properties": { "Name": "Baltimore Ravens", "Description": "<br>Source: Wikipedia article <a href=\"https:\/\/en.wikipedia.org\/wiki\/National_Football_League#cite_ref-b_58-0\">National Football League<\/a>" }, "geometry": { "type": "Point", "coordinates": [ -76.623, 39.278, 0.0 ] } },
{ "type": "Feature", "properties": { "Name": "Cincinnati Bengals", "Description": "<br>Source: Wikipedia article <a href=\"https:\/\/en.wikipedia.org\/wiki\/National_Football_League#cite_ref-c_61-0\">National Football League<\/a>" }, "geometry": { "type": "Point", "coordinates": [ -84.516, 39.095, 0.0 ] } },
{ "type": "Feature", "properties": { "Name": "Cleveland Browns", "Description": "<br>Source: Wikipedia article <a href=\"https:\/\/en.wikipedia.org\/wiki\/National_Football_League#cite_ref-c_61-0\">National Football League<\/a>" }, "geometry": { "type": "Point", "coordinates": [ -81.699, 41.506, 0.0 ] } },
{ "type": "Feature", "properties": { "Name": "Pittsburgh Steelers", "Description": "<br>Source: Wikipedia article <a href=\"https:\/\/en.wikipedia.org\/wiki\/National_Football_League#cite_ref-c_61-1\">National Football League<\/a>" }, "geometry": { "type": "Point", "coordinates": [ -80.016, 40.447, 0.0 ] } },
{ "type": "Feature", "properties": { "Name": "Houston Texans", "Description": "<br>Source: Wikipedia article <a href=\"https:\/\/en.wikipedia.org\/wiki\/National_Football_League#cite_ref-c_61-1\">National Football League<\/a>" }, "geometry": { "type": "Point", "coordinates": [ -95.411, 29.685, 0.0 ] } },
{ "type": "Feature", "properties": { "Name": "Indianapolis Colts", "Description": "<br>Source: Wikipedia article <a href=\"https:\/\/en.wikipedia.org\/wiki\/National_Football_League#cite_ref-c_61-1\">National Football League<\/a>" }, "geometry": { "type": "Point", "coordinates": [ -86.164, 39.76, 0.0 ] } },
{ "type": "Feature", "properties": { "Name": "Jacksonville Jaguars", "Description": "<br>Source: Wikipedia article <a href=\"https:\/\/en.wikipedia.org\/wiki\/National_Football_League#cite_ref-d_63-0\">National Football League<\/a>" }, "geometry": { "type": "Point", "coordinates": [ -81.638, 30.324, 0.0 ] } },
{ "type": "Feature", "properties": { "Name": "Tennessee Titans", "Description": "<br>Source: Wikipedia article <a href=\"https:\/\/en.wikipedia.org\/wiki\/National_Football_League#cite_ref-d_63-0\">National Football League<\/a>" }, "geometry": { "type": "Point", "coordinates": [ -86.771, 36.166, 0.0 ] } },
{ "type": "Feature", "properties": { "Name": "Denver Broncos", "Description": "<br>Source: Wikipedia article <a href=\"https:\/\/en.wikipedia.org\/wiki\/National_Football_League#cite_ref-d_63-0\">National Football League<\/a>" }, "geometry": { "type": "Point", "coordinates": [ -105.02, 39.744, 0.0 ] } },
{ "type": "Feature", "properties": { "Name": "Kansas City Chiefs", "Description": "<br>Source: Wikipedia article <a href=\"https:\/\/en.wikipedia.org\/wiki\/National_Football_League#cite_ref-d_63-0\">National Football League<\/a>" }, "geometry": { "type": "Point", "coordinates": [ -94.484, 39.049, 0.0 ] } },
{ "type": "Feature", "properties": { "Name": "Oakland Raiders", "Description": "<br>Source: Wikipedia article <a href=\"https:\/\/en.wikipedia.org\/wiki\/National_Football_League#cite_ref-d_63-0\">National Football League<\/a>" }, "geometry": { "type": "Point", "coordinates": [ -122.201, 37.752, 0.0 ] } },
{ "type": "Feature", "properties": { "Name": "San Diego Chargers", "Description": "<br>Source: Wikipedia article <a href=\"https:\/\/en.wikipedia.org\/wiki\/National_Football_League#cite_ref-d_63-0\">National Football League<\/a>" }, "geometry": { "type": "Point", "coordinates": [ -117.119, 32.783, 0.0 ] } },
{ "type": "Feature", "properties": { "Name": "Dallas Cowboys", "Description": "<br>Source: Wikipedia article <a href=\"https:\/\/en.wikipedia.org\/wiki\/National_Football_League#cite_ref-d_63-0\">National Football League<\/a>" }, "geometry": { "type": "Point", "coordinates": [ -97.093, 32.748, 0.0 ] } },
{ "type": "Feature", "properties": { "Name": "Philadelphia Eagles", "Description": "<br>Source: Wikipedia article <a href=\"https:\/\/en.wikipedia.org\/wiki\/National_Football_League#cite_ref-b_58-1\">National Football League<\/a>" }, "geometry": { "type": "Point", "coordinates": [ -75.168, 39.901, 0.0 ] } },
{ "type": "Feature", "properties": { "Name": "Washington Redskins", "Description": "<br>Source: Wikipedia article <a href=\"https:\/\/en.wikipedia.org\/wiki\/National_Football_League#cite_ref-b_58-1\">National Football League<\/a>" }, "geometry": { "type": "Point", "coordinates": [ -76.864, 38.908, 0.0 ] } },
{ "type": "Feature", "properties": { "Name": "Chicago Bears", "Description": "<br>Source: Wikipedia article <a href=\"https:\/\/en.wikipedia.org\/wiki\/National_Football_League#cite_ref-b_58-1\">National Football League<\/a>" }, "geometry": { "type": "Point", "coordinates": [ -87.617, 41.863, 0.0 ] } },
{ "type": "Feature", "properties": { "Name": "Detroit Lions", "Description": "<br>Source: Wikipedia article <a href=\"https:\/\/en.wikipedia.org\/wiki\/National_Football_League#cite_ref-b_58-1\">National Football League<\/a>" }, "geometry": { "type": "Point", "coordinates": [ -83.046, 42.34, 0.0 ] } },
{ "type": "Feature", "properties": { "Name": "Green Bay Packers", "Description": "<br>Source: Wikipedia article <a href=\"https:\/\/en.wikipedia.org\/wiki\/National_Football_League#cite_ref-b_58-1\">National Football League<\/a>" }, "geometry": { "type": "Point", "coordinates": [ -88.062, 44.501, 0.0 ] } },
{ "type": "Feature", "properties": { "Name": "Minnesota Vikings", "Description": "<br>Source: Wikipedia article <a href=\"https:\/\/en.wikipedia.org\/wiki\/National_Football_League#cite_ref-b_58-1\">National Football League<\/a>" }, "geometry": { "type": "Point", "coordinates": [ -93.2581, 44.9739, 0.0 ] } },
{ "type": "Feature", "properties": { "Name": "Atlanta Falcons", "Description": "<br>Source: Wikipedia article <a href=\"https:\/\/en.wikipedia.org\/wiki\/National_Football_League#cite_ref-b_58-1\">National Football League<\/a>" }, "geometry": { "type": "Point", "coordinates": [ -84.401, 33.758, 0.0 ] } },
{ "type": "Feature", "properties": { "Name": "Carolina Panthers", "Description": "<br>Source: Wikipedia article <a href=\"https:\/\/en.wikipedia.org\/wiki\/National_Football_League#cite_ref-b_58-1\">National Football League<\/a>" }, "geometry": { "type": "Point", "coordinates": [ -80.853, 35.226, 0.0 ] } },
{ "type": "Feature", "properties": { "Name": "New Orleans Saints", "Description": "<br>Source: Wikipedia article <a href=\"https:\/\/en.wikipedia.org\/wiki\/National_Football_League#cite_ref-b_58-1\">National Football League<\/a>" }, "geometry": { "type": "Point", "coordinates": [ -90.081, 29.951, 0.0 ] } },
{ "type": "Feature", "properties": { "Name": "Tampa Bay Buccaneers", "Description": "<br>Source: Wikipedia article <a href=\"https:\/\/en.wikipedia.org\/wiki\/National_Football_League#cite_ref-b_58-1\">National Football League<\/a>" }, "geometry": { "type": "Point", "coordinates": [ -82.503, 27.976, 0.0 ] } },
{ "type": "Feature", "properties": { "Name": "Arizona Cardinals", "Description": "<br>Source: Wikipedia article <a href=\"https:\/\/en.wikipedia.org\/wiki\/National_Football_League#cite_ref-b_58-1\">National Football League<\/a>" }, "geometry": { "type": "Point", "coordinates": [ -112.263, 33.528, 0.0 ] } },
{ "type": "Feature", "properties": { "Name": "Los Angeles Rams", "Description": "<br>Source: Wikipedia article <a href=\"https:\/\/en.wikipedia.org\/wiki\/National_Football_League#cite_ref-f_67-0\">National Football League<\/a>" }, "geometry": { "type": "Point", "coordinates": [ -118.288, 34.014, 0.0 ] } },
{ "type": "Feature", "properties": { "Name": "San Francisco 49ers", "Description": "<br>Source: Wikipedia article <a href=\"https:\/\/en.wikipedia.org\/wiki\/National_Football_League#cite_ref-f_67-0\">National Football League<\/a>" }, "geometry": { "type": "Point", "coordinates": [ -121.97, 37.403, 0.0 ] } },
{ "type": "Feature", "properties": { "Name": "Seattle Seahawks", "Description": "<br>Source: Wikipedia article <a href=\"https:\/\/en.wikipedia.org\/wiki\/National_Football_League#cite_ref-f_67-0\">National Football League<\/a>" }, "geometry": { "type": "Point", "coordinates": [ -122.332, 47.595, 0.0 ] } }
]
}
